header:
  stamp:
    sec: 1707755329
    nanosec: 747836024
  frame_id: map
ns: map
id: 166
type: 9
action: 0
pose:
  position:
    x: 6.297125339508057
    y: -3.594657039642334
    z: 0.6
  orientation:
    x: 0.0
    y: 0.0
    z: 0.0
    w: 1.0
scale:
  x: 0.5
  y: 0.5
  z: 0.5
color:
  r: 0.0
  g: 0.0
  b: 1.0
  a: 1.0
lifetime:
  sec: 0
  nanosec: 0
frame_locked: false
points: []
colors: []
texture_resource: ''
texture:
  header:
    stamp:
      sec: 0
      nanosec: 0
    frame_id: ''
  format: ''
  data: []
uv_coordinates: []
text: '-15.30'
mesh_resource: ''
mesh_file:
  filename: ''
  data: []
mesh_use_embedded_materials: false
---
header:
  stamp:
    sec: 1707755327
    nanosec: 945122433
  frame_id: map
ns: map
id: 0
type: 4
action: 0
pose:
  position:
    x: 0.0
    y: 0.0
    z: 0.0
  orientation:
    x: 0.0
    y: 0.0
    z: 0.0
    w: 1.0
scale:
  x: 0.5
  y: 0.0
  z: 0.0
color:
  r: 0.0
  g: 0.0
  b: 0.0
  a: 1.0
lifetime:
  sec: 0
  nanosec: 0
frame_locked: false
points:
- x: -5.7979305353555874
  y: -10.041999907957422
  z: 0.0
- x: -11.595852155507458
  y: -5.298290197686129e-07
  z: 0.0
- x: -5.7979305353555874
  y: 10.041999907957424
  z: 0.0
- x: 5.7979305353555874
  y: 10.041999907957422
  z: 0.0
- x: 11.595852155507458
  y: 5.298290197686129e-07
  z: 0.0
- x: 5.7979305353555874
  y: -10.041999907957424
  z: 0.0
- x: -5.7979305353555874
  y: -10.041999907957422
  z: 0.0
colors: []
texture_resource: ''
texture:
  header:
    stamp:
      sec: 0
      nanosec: 0
    frame_id: ''
  format: ''
  data: []
uv_coordinates: []
text: ''
mesh_resource: ''
mesh_file:
  filename: ''
  data: []
mesh_use_embedded_materials: false
---
header:
  stamp:
    sec: 1707755328
    nanosec: 145952039
  frame_id: map
ns: map
id: 2
type: 8
action: 0
pose:
  position:
    x: 0.0
    y: 0.0
    z: 0.0
  orientation:
    x: 0.0
    y: 0.0
    z: 0.0
    w: 1.0
scale:
  x: 0.4
  y: 0.4
  z: 0.0
color:
  r: 0.0
  g: 1.0
  b: 0.0
  a: 1.0
lifetime:
  sec: 0
  nanosec: 0
frame_locked: false
points:
- x: 0.015325259311731513
  y: 0.0060327188908689214
  z: 0.0
colors: []
texture_resource: ''
texture:
  header:
    stamp:
      sec: 0
      nanosec: 0
    frame_id: ''
  format: ''
  data: []
uv_coordinates: []
text: ''
mesh_resource: ''
mesh_file:
  filename: ''
  data: []
mesh_use_embedded_materials: false
---
header:
  stamp:
    sec: 1707755326
    nanosec: 842264833
  frame_id: map
ns: map
id: 3
type: 8
action: 0
pose:
  position:
    x: 0.0
    y: 0.0
    z: -1.0
  orientation:
    x: 0.0
    y: 0.0
    z: 0.0
    w: 1.0
scale:
  x: 0.4
  y: 0.4
  z: 0.0
color:
  r: 1.0
  g: 0.0
  b: 0.0
  a: 1.0
lifetime:
  sec: 0
  nanosec: 0
frame_locked: false
points:
- x: 1.333534225001003
  y: -9.892204845413264
  z: 0.0
colors: []
texture_resource: ''
texture:
  header:
    stamp:
      sec: 0
      nanosec: 0
    frame_id: ''
  format: ''
  data: []
uv_coordinates: []
text: ''
mesh_resource: ''
mesh_file:
  filename: ''
  data: []
mesh_use_embedded_materials: false
---
header:
  stamp:
    sec: 1707755327
    nanosec: 945451019
  frame_id: map
ns: map
id: 11
type: 7
action: 0
pose:
  position:
    x: 0.0
    y: 0.0
    z: 0.0
  orientation:
    x: 0.0
    y: 0.0
    z: 0.0
    w: 1.0
scale:
  x: 0.3
  y: 0.3
  z: 0.0
color:
  r: 0.0
  g: 0.0
  b: 1.0
  a: 1.0
lifetime:
  sec: 0
  nanosec: 0
frame_locked: false
points:
- x: -2.7412095069885254
  y: -7.209719657897949
  z: 0.0
- x: -0.7675142288208008
  y: 1.2993310689926147
  z: 0.0
- x: -6.903553009033203
  y: 0.6703137755393982
  z: 0.0
- x: 5.434587478637695
  y: -1.3532778024673462
  z: 0.0
- x: 6.297125339508057
  y: -3.994657039642334
  z: 0.0
colors: []
texture_resource: ''
texture:
  header:
    stamp:
      sec: 0
      nanosec: 0
    frame_id: ''
  format: ''
  data: []
uv_coordinates: []
text: ''
mesh_resource: ''
mesh_file:
  filename: ''
  data: []
mesh_use_embedded_materials: false
---
header:
  stamp:
    sec: 1707755329
    nanosec: 797976078
  frame_id: map
ns: map
id: 166
type: 9
action: 0
pose:
  position:
    x: 6.297125339508057
    y: -3.594657039642334
    z: 0.6
  orientation:
    x: 0.0
    y: 0.0
    z: 0.0
    w: 1.0
scale:
  x: 0.5
  y: 0.5
  z: 0.5
color:
  r: 0.0
  g: 0.0
  b: 1.0
  a: 1.0
lifetime:
  sec: 0
  nanosec: 0
frame_locked: false
points: []
colors: []
texture_resource: ''
texture:
  header:
    stamp:
      sec: 0
      nanosec: 0
    frame_id: ''
  format: ''
  data: []
uv_coordinates: []
text: '-15.30'
mesh_resource: ''
mesh_file:
  filename: ''
  data: []
mesh_use_embedded_materials: false
---
header:
  stamp:
    sec: 1707755327
    nanosec: 945122433
  frame_id: map
ns: map
id: 0
type: 4
action: 0
pose:
  position:
    x: 0.0
    y: 0.0
    z: 0.0
  orientation:
    x: 0.0
    y: 0.0
    z: 0.0
    w: 1.0
scale:
  x: 0.5
  y: 0.0
  z: 0.0
color:
  r: 0.0
  g: 0.0
  b: 0.0
  a: 1.0
lifetime:
  sec: 0
  nanosec: 0
frame_locked: false
points:
- x: -5.7979305353555874
  y: -10.041999907957422
  z: 0.0
- x: -11.595852155507458
  y: -5.298290197686129e-07
  z: 0.0
- x: -5.7979305353555874
  y: 10.041999907957424
  z: 0.0
- x: 5.7979305353555874
  y: 10.041999907957422
  z: 0.0
- x: 11.595852155507458
  y: 5.298290197686129e-07
  z: 0.0
- x: 5.7979305353555874
  y: -10.041999907957424
  z: 0.0
- x: -5.7979305353555874
  y: -10.041999907957422
  z: 0.0
colors: []
texture_resource: ''
texture:
  header:
    stamp:
      sec: 0
      nanosec: 0
    frame_id: ''
  format: ''
  data: []
uv_coordinates: []
text: ''
mesh_resource: ''
mesh_file:
  filename: ''
  data: []
mesh_use_embedded_materials: false
---
header:
  stamp:
    sec: 1707755328
    nanosec: 145952039
  frame_id: map
ns: map
id: 2
type: 8
action: 0
pose:
  position:
    x: 0.0
    y: 0.0
    z: 0.0
  orientation:
    x: 0.0
    y: 0.0
    z: 0.0
    w: 1.0
scale:
  x: 0.4
  y: 0.4
  z: 0.0
color:
  r: 0.0
  g: 1.0
  b: 0.0
  a: 1.0
lifetime:
  sec: 0
  nanosec: 0
frame_locked: false
points:
- x: 0.015325259311731513
  y: 0.0060327188908689214
  z: 0.0
colors: []
texture_resource: ''
texture:
  header:
    stamp:
      sec: 0
      nanosec: 0
    frame_id: ''
  format: ''
  data: []
uv_coordinates: []
text: ''
mesh_resource: ''
mesh_file:
  filename: ''
  data: []
mesh_use_embedded_materials: false
---
header:
  stamp:
    sec: 1707755326
    nanosec: 842264833
  frame_id: map
ns: map
id: 3
type: 8
action: 0
pose:
  position:
    x: 0.0
    y: 0.0
    z: -1.0
  orientation:
    x: 0.0
    y: 0.0
    z: 0.0
    w: 1.0
scale:
  x: 0.4
  y: 0.4
  z: 0.0
color:
  r: 1.0
  g: 0.0
  b: 0.0
  a: 1.0
lifetime:
  sec: 0
  nanosec: 0
frame_locked: false
points:
- x: 1.333534225001003
  y: -9.892204845413264
  z: 0.0
colors: []
texture_resource: ''
texture:
  header:
    stamp:
      sec: 0
      nanosec: 0
    frame_id: ''
  format: ''
  data: []
uv_coordinates: []
text: ''
mesh_resource: ''
mesh_file:
  filename: ''
  data: []
mesh_use_embedded_materials: false
---
header:
  stamp:
    sec: 1707755327
    nanosec: 945451019
  frame_id: map
ns: map
id: 11
type: 7
action: 0
pose:
  position:
    x: 0.0
    y: 0.0
    z: 0.0
  orientation:
    x: 0.0
    y: 0.0
    z: 0.0
    w: 1.0
scale:
  x: 0.3
  y: 0.3
  z: 0.0
color:
  r: 0.0
  g: 0.0
  b: 1.0
  a: 1.0
lifetime:
  sec: 0
  nanosec: 0
frame_locked: false
points:
- x: -2.7412095069885254
  y: -7.209719657897949
  z: 0.0
- x: -0.7675142288208008
  y: 1.2993310689926147
  z: 0.0
- x: -6.903553009033203
  y: 0.6703137755393982
  z: 0.0
- x: 5.434587478637695
  y: -1.3532778024673462
  z: 0.0
- x: 6.297125339508057
  y: -3.994657039642334
  z: 0.0
colors: []
texture_resource: ''
texture:
  header:
    stamp:
      sec: 0
      nanosec: 0
    frame_id: ''
  format: ''
  data: []
uv_coordinates: []
text: ''
mesh_resource: ''
mesh_file:
  filename: ''
  data: []
mesh_use_embedded_materials: false
---
header:
  stamp:
    sec: 1707755329
    nanosec: 848141992
  frame_id: map
ns: map
id: 166
type: 9
action: 0
pose:
  position:
    x: 6.297125339508057
    y: -3.594657039642334
    z: 0.6
  orientation:
    x: 0.0
    y: 0.0
    z: 0.0
    w: 1.0
scale:
  x: 0.5
  y: 0.5
  z: 0.5
color:
  r: 0.0
  g: 0.0
  b: 1.0
  a: 1.0
lifetime:
  sec: 0
  nanosec: 0
frame_locked: false
points: []
colors: []
texture_resource: ''
texture:
  header:
    stamp:
      sec: 0
      nanosec: 0
    frame_id: ''
  format: ''
  data: []
uv_coordinates: []
text: '-15.30'
mesh_resource: ''
mesh_file:
  filename: ''
  data: []
mesh_use_embedded_materials: false
---
header:
  stamp:
    sec: 1707755327
    nanosec: 945122433
  frame_id: map
ns: map
id: 0
type: 4
action: 0
pose:
  position:
    x: 0.0
    y: 0.0
    z: 0.0
  orientation:
    x: 0.0
    y: 0.0
    z: 0.0
    w: 1.0
scale:
  x: 0.5
  y: 0.0
  z: 0.0
color:
  r: 0.0
  g: 0.0
  b: 0.0
  a: 1.0
lifetime:
  sec: 0
  nanosec: 0
frame_locked: false
points:
- x: -5.7979305353555874
  y: -10.041999907957422
  z: 0.0
- x: -11.595852155507458
  y: -5.298290197686129e-07
  z: 0.0
- x: -5.7979305353555874
  y: 10.041999907957424
  z: 0.0
- x: 5.7979305353555874
  y: 10.041999907957422
  z: 0.0
- x: 11.595852155507458
  y: 5.298290197686129e-07
  z: 0.0
- x: 5.7979305353555874
  y: -10.041999907957424
  z: 0.0
- x: -5.7979305353555874
  y: -10.041999907957422
  z: 0.0
colors: []
texture_resource: ''
texture:
  header:
    stamp:
      sec: 0
      nanosec: 0
    frame_id: ''
  format: ''
  data: []
uv_coordinates: []
text: ''
mesh_resource: ''
mesh_file:
  filename: ''
  data: []
mesh_use_embedded_materials: false
---
header:
  stamp:
    sec: 1707755328
    nanosec: 145952039
  frame_id: map
ns: map
id: 2
type: 8
action: 0
pose:
  position:
    x: 0.0
    y: 0.0
    z: 0.0
  orientation:
    x: 0.0
    y: 0.0
    z: 0.0
    w: 1.0
scale:
  x: 0.4
  y: 0.4
  z: 0.0
color:
  r: 0.0
  g: 1.0
  b: 0.0
  a: 1.0
lifetime:
  sec: 0
  nanosec: 0
frame_locked: false
points:
- x: 0.015325259311731513
  y: 0.0060327188908689214
  z: 0.0
colors: []
texture_resource: ''
texture:
  header:
    stamp:
      sec: 0
      nanosec: 0
    frame_id: ''
  format: ''
  data: []
uv_coordinates: []
text: ''
mesh_resource: ''
mesh_file:
  filename: ''
  data: []
mesh_use_embedded_materials: false
---
header:
  stamp:
    sec: 1707755326
    nanosec: 842264833
  frame_id: map
ns: map
id: 3
type: 8
action: 0
pose:
  position:
    x: 0.0
    y: 0.0
    z: -1.0
  orientation:
    x: 0.0
    y: 0.0
    z: 0.0
    w: 1.0
scale:
  x: 0.4
  y: 0.4
  z: 0.0
color:
  r: 1.0
  g: 0.0
  b: 0.0
  a: 1.0
lifetime:
  sec: 0
  nanosec: 0
frame_locked: false
points:
- x: 1.333534225001003
  y: -9.892204845413264
  z: 0.0
colors: []
texture_resource: ''
texture:
  header:
    stamp:
      sec: 0
      nanosec: 0
    frame_id: ''
  format: ''
  data: []
uv_coordinates: []
text: ''
mesh_resource: ''
mesh_file:
  filename: ''
  data: []
mesh_use_embedded_materials: false
---
header:
  stamp:
    sec: 1707755327
    nanosec: 945451019
  frame_id: map
ns: map
id: 11
type: 7
action: 0
pose:
  position:
    x: 0.0
    y: 0.0
    z: 0.0
  orientation:
    x: 0.0
    y: 0.0
    z: 0.0
    w: 1.0
scale:
  x: 0.3
  y: 0.3
  z: 0.0
color:
  r: 0.0
  g: 0.0
  b: 1.0
  a: 1.0
lifetime:
  sec: 0
  nanosec: 0
frame_locked: false
points:
- x: -2.7412095069885254
  y: -7.209719657897949
  z: 0.0
- x: -0.7675142288208008
  y: 1.2993310689926147
  z: 0.0
- x: -6.903553009033203
  y: 0.6703137755393982
  z: 0.0
- x: 5.434587478637695
  y: -1.3532778024673462
  z: 0.0
- x: 6.297125339508057
  y: -3.994657039642334
  z: 0.0
colors: []
texture_resource: ''
texture:
  header:
    stamp:
      sec: 0
      nanosec: 0
    frame_id: ''
  format: ''
  data: []
uv_coordinates: []
text: ''
mesh_resource: ''
mesh_file:
  filename: ''
  data: []
mesh_use_embedded_materials: false
---
header:
  stamp:
    sec: 1707755329
    nanosec: 898338411
  frame_id: map
ns: map
id: 166
type: 9
action: 0
pose:
  position:
    x: 6.297125339508057
    y: -3.594657039642334
    z: 0.6
  orientation:
    x: 0.0
    y: 0.0
    z: 0.0
    w: 1.0
scale:
  x: 0.5
  y: 0.5
  z: 0.5
color:
  r: 0.0
  g: 0.0
  b: 1.0
  a: 1.0
lifetime:
  sec: 0
  nanosec: 0
frame_locked: false
points: []
colors: []
texture_resource: ''
texture:
  header:
    stamp:
      sec: 0
      nanosec: 0
    frame_id: ''
  format: ''
  data: []
uv_coordinates: []
text: '-15.30'
mesh_resource: ''
mesh_file:
  filename: ''
  data: []
mesh_use_embedded_materials: false
---
header:
  stamp:
    sec: 1707755327
    nanosec: 945122433
  frame_id: map
ns: map
id: 0
type: 4
action: 0
pose:
  position:
    x: 0.0
    y: 0.0
    z: 0.0
  orientation:
    x: 0.0
    y: 0.0
    z: 0.0
    w: 1.0
scale:
  x: 0.5
  y: 0.0
  z: 0.0
color:
  r: 0.0
  g: 0.0
  b: 0.0
  a: 1.0
lifetime:
  sec: 0
  nanosec: 0
frame_locked: false
points:
- x: -5.7979305353555874
  y: -10.041999907957422
  z: 0.0
- x: -11.595852155507458
  y: -5.298290197686129e-07
  z: 0.0
- x: -5.7979305353555874
  y: 10.041999907957424
  z: 0.0
- x: 5.7979305353555874
  y: 10.041999907957422
  z: 0.0
- x: 11.595852155507458
  y: 5.298290197686129e-07
  z: 0.0
- x: 5.7979305353555874
  y: -10.041999907957424
  z: 0.0
- x: -5.7979305353555874
  y: -10.041999907957422
  z: 0.0
colors: []
texture_resource: ''
texture:
  header:
    stamp:
      sec: 0
      nanosec: 0
    frame_id: ''
  format: ''
  data: []
uv_coordinates: []
text: ''
mesh_resource: ''
mesh_file:
  filename: ''
  data: []
mesh_use_embedded_materials: false
---
header:
  stamp:
    sec: 1707755328
    nanosec: 145952039
  frame_id: map
ns: map
id: 2
type: 8
action: 0
pose:
  position:
    x: 0.0
    y: 0.0
    z: 0.0
  orientation:
    x: 0.0
    y: 0.0
    z: 0.0
    w: 1.0
scale:
  x: 0.4
  y: 0.4
  z: 0.0
color:
  r: 0.0
  g: 1.0
  b: 0.0
  a: 1.0
lifetime:
  sec: 0
  nanosec: 0
frame_locked: false
points:
- x: 0.015325259311731513
  y: 0.0060327188908689214
  z: 0.0
colors: []
texture_resource: ''
texture:
  header:
    stamp:
      sec: 0
      nanosec: 0
    frame_id: ''
  format: ''
  data: []
uv_coordinates: []
text: ''
mesh_resource: ''
mesh_file:
  filename: ''
  data: []
mesh_use_embedded_materials: false
---
header:
  stamp:
    sec: 1707755326
    nanosec: 842264833
  frame_id: map
ns: map
id: 3
type: 8
action: 0
pose:
  position:
    x: 0.0
    y: 0.0
    z: -1.0
  orientation:
    x: 0.0
    y: 0.0
    z: 0.0
    w: 1.0
scale:
  x: 0.4
  y: 0.4
  z: 0.0
color:
  r: 1.0
  g: 0.0
  b: 0.0
  a: 1.0
lifetime:
  sec: 0
  nanosec: 0
frame_locked: false
points:
- x: 1.333534225001003
  y: -9.892204845413264
  z: 0.0
colors: []
texture_resource: ''
texture:
  header:
    stamp:
      sec: 0
      nanosec: 0
    frame_id: ''
  format: ''
  data: []
uv_coordinates: []
text: ''
mesh_resource: ''
mesh_file:
  filename: ''
  data: []
mesh_use_embedded_materials: false
---
header:
  stamp:
    sec: 1707755327
    nanosec: 945451019
  frame_id: map
ns: map
id: 11
type: 7
action: 0
pose:
  position:
    x: 0.0
    y: 0.0
    z: 0.0
  orientation:
    x: 0.0
    y: 0.0
    z: 0.0
    w: 1.0
scale:
  x: 0.3
  y: 0.3
  z: 0.0
color:
  r: 0.0
  g: 0.0
  b: 1.0
  a: 1.0
lifetime:
  sec: 0
  nanosec: 0
frame_locked: false
points:
- x: -2.7412095069885254
  y: -7.209719657897949
  z: 0.0
- x: -0.7675142288208008
  y: 1.2993310689926147
  z: 0.0
- x: -6.903553009033203
  y: 0.6703137755393982
  z: 0.0
- x: 5.434587478637695
  y: -1.3532778024673462
  z: 0.0
- x: 6.297125339508057
  y: -3.994657039642334
  z: 0.0
colors: []
texture_resource: ''
texture:
  header:
    stamp:
      sec: 0
      nanosec: 0
    frame_id: ''
  format: ''
  data: []
uv_coordinates: []
text: ''
mesh_resource: ''
mesh_file:
  filename: ''
  data: []
mesh_use_embedded_materials: false
---
header:
  stamp:
    sec: 1707755329
    nanosec: 948517433
  frame_id: map
ns: map
id: 166
type: 9
action: 0
pose:
  position:
    x: 6.297125339508057
    y: -3.594657039642334
    z: 0.6
  orientation:
    x: 0.0
    y: 0.0
    z: 0.0
    w: 1.0
scale:
  x: 0.5
  y: 0.5
  z: 0.5
color:
  r: 0.0
  g: 0.0
  b: 1.0
  a: 1.0
lifetime:
  sec: 0
  nanosec: 0
frame_locked: false
points: []
colors: []
texture_resource: ''
texture:
  header:
    stamp:
      sec: 0
      nanosec: 0
    frame_id: ''
  format: ''
  data: []
uv_coordinates: []
text: '-15.30'
mesh_resource: ''
mesh_file:
  filename: ''
  data: []
mesh_use_embedded_materials: false
---
header:
  stamp:
    sec: 1707755327
    nanosec: 945122433
  frame_id: map
ns: map
id: 0
type: 4
action: 0
pose:
  position:
    x: 0.0
    y: 0.0
    z: 0.0
  orientation:
    x: 0.0
    y: 0.0
    z: 0.0
    w: 1.0
scale:
  x: 0.5
  y: 0.0
  z: 0.0
color:
  r: 0.0
  g: 0.0
  b: 0.0
  a: 1.0
lifetime:
  sec: 0
  nanosec: 0
frame_locked: false
points:
- x: -5.7979305353555874
  y: -10.041999907957422
  z: 0.0
- x: -11.595852155507458
  y: -5.298290197686129e-07
  z: 0.0
- x: -5.7979305353555874
  y: 10.041999907957424
  z: 0.0
- x: 5.7979305353555874
  y: 10.041999907957422
  z: 0.0
- x: 11.595852155507458
  y: 5.298290197686129e-07
  z: 0.0
- x: 5.7979305353555874
  y: -10.041999907957424
  z: 0.0
- x: -5.7979305353555874
  y: -10.041999907957422
  z: 0.0
colors: []
texture_resource: ''
texture:
  header:
    stamp:
      sec: 0
      nanosec: 0
    frame_id: ''
  format: ''
  data: []
uv_coordinates: []
text: ''
mesh_resource: ''
mesh_file:
  filename: ''
  data: []
mesh_use_embedded_materials: false
---
header:
  stamp:
    sec: 1707755328
    nanosec: 145952039
  frame_id: map
ns: map
id: 2
type: 8
action: 0
pose:
  position:
    x: 0.0
    y: 0.0
    z: 0.0
  orientation:
    x: 0.0
    y: 0.0
    z: 0.0
    w: 1.0
scale:
  x: 0.4
  y: 0.4
  z: 0.0
color:
  r: 0.0
  g: 1.0
  b: 0.0
  a: 1.0
lifetime:
  sec: 0
  nanosec: 0
frame_locked: false
points:
- x: 0.015325259311731513
  y: 0.0060327188908689214
  z: 0.0
colors: []
texture_resource: ''
texture:
  header:
    stamp:
      sec: 0
      nanosec: 0
    frame_id: ''
  format: ''
  data: []
uv_coordinates: []
text: ''
mesh_resource: ''
mesh_file:
  filename: ''
  data: []
mesh_use_embedded_materials: false
---
header:
  stamp:
    sec: 1707755326
    nanosec: 842264833
  frame_id: map
ns: map
id: 3
type: 8
action: 0
pose:
  position:
    x: 0.0
    y: 0.0
    z: -1.0
  orientation:
    x: 0.0
    y: 0.0
    z: 0.0
    w: 1.0
scale:
  x: 0.4
  y: 0.4
  z: 0.0
color:
  r: 1.0
  g: 0.0
  b: 0.0
  a: 1.0
lifetime:
  sec: 0
  nanosec: 0
frame_locked: false
points:
- x: 1.333534225001003
  y: -9.892204845413264
  z: 0.0
colors: []
texture_resource: ''
texture:
  header:
    stamp:
      sec: 0
      nanosec: 0
    frame_id: ''
  format: ''
  data: []
uv_coordinates: []
text: ''
mesh_resource: ''
mesh_file:
  filename: ''
  data: []
mesh_use_embedded_materials: false
---
header:
  stamp:
    sec: 1707755327
    nanosec: 945451019
  frame_id: map
ns: map
id: 11
type: 7
action: 0
pose:
  position:
    x: 0.0
    y: 0.0
    z: 0.0
  orientation:
    x: 0.0
    y: 0.0
    z: 0.0
    w: 1.0
scale:
  x: 0.3
  y: 0.3
  z: 0.0
color:
  r: 0.0
  g: 0.0
  b: 1.0
  a: 1.0
lifetime:
  sec: 0
  nanosec: 0
frame_locked: false
points:
- x: -2.7412095069885254
  y: -7.209719657897949
  z: 0.0
- x: -0.7675142288208008
  y: 1.2993310689926147
  z: 0.0
- x: -6.903553009033203
  y: 0.6703137755393982
  z: 0.0
- x: 5.434587478637695
  y: -1.3532778024673462
  z: 0.0
- x: 6.297125339508057
  y: -3.994657039642334
  z: 0.0
colors: []
texture_resource: ''
texture:
  header:
    stamp:
      sec: 0
      nanosec: 0
    frame_id: ''
  format: ''
  data: []
uv_coordinates: []
text: ''
mesh_resource: ''
mesh_file:
  filename: ''
  data: []
mesh_use_embedded_materials: false
---
header:
  stamp:
    sec: 1707755327
    nanosec: 944707330
  frame_id: map
ns: map
id: 106
type: 1
action: 0
pose:
  position:
    x: 5.993340015411377
    y: 0.9486501812934875
    z: 0.0
  orientation:
    x: 0.0
    y: 0.0
    z: 0.0
    w: 1.0
scale:
  x: 3.556914520263671
  y: 3.6775865972042086
  z: 1.1
color:
  r: 0.0
  g: 1.0
  b: 0.0
  a: 1.0
lifetime:
  sec: 0
  nanosec: 0
frame_locked: false
points: []
colors: []
texture_resource: ''
texture:
  header:
    stamp:
      sec: 0
      nanosec: 0
    frame_id: ''
  format: ''
  data: []
uv_coordinates: []
text: ''
mesh_resource: ''
mesh_file:
  filename: ''
  data: []
mesh_use_embedded_materials: false
---
header:
  stamp:
    sec: 1707755329
    nanosec: 998727761
  frame_id: map
ns: map
id: 166
type: 9
action: 0
pose:
  position:
    x: 6.297125339508057
    y: -3.594657039642334
    z: 0.6
  orientation:
    x: 0.0
    y: 0.0
    z: 0.0
    w: 1.0
scale:
  x: 0.5
  y: 0.5
  z: 0.5
color:
  r: 0.0
  g: 0.0
  b: 1.0
  a: 1.0
lifetime:
  sec: 0
  nanosec: 0
frame_locked: false
points: []
colors: []
texture_resource: ''
texture:
  header:
    stamp:
      sec: 0
      nanosec: 0
    frame_id: ''
  format: ''
  data: []
uv_coordinates: []
text: '-15.30'
mesh_resource: ''
mesh_file:
  filename: ''
  data: []
mesh_use_embedded_materials: false
---
header:
  stamp:
    sec: 1707755327
    nanosec: 945122433
  frame_id: map
ns: map
id: 0
type: 4
action: 0
pose:
  position:
    x: 0.0
    y: 0.0
    z: 0.0
  orientation:
    x: 0.0
    y: 0.0
    z: 0.0
    w: 1.0
scale:
  x: 0.5
  y: 0.0
  z: 0.0
color:
  r: 0.0
  g: 0.0
  b: 0.0
  a: 1.0
lifetime:
  sec: 0
  nanosec: 0
frame_locked: false
points:
- x: -5.7979305353555874
  y: -10.041999907957422
  z: 0.0
- x: -11.595852155507458
  y: -5.298290197686129e-07
  z: 0.0
- x: -5.7979305353555874
  y: 10.041999907957424
  z: 0.0
- x: 5.7979305353555874
  y: 10.041999907957422
  z: 0.0
- x: 11.595852155507458
  y: 5.298290197686129e-07
  z: 0.0
- x: 5.7979305353555874
  y: -10.041999907957424
  z: 0.0
- x: -5.7979305353555874
  y: -10.041999907957422
  z: 0.0
colors: []
texture_resource: ''
texture:
  header:
    stamp:
      sec: 0
      nanosec: 0
    frame_id: ''
  format: ''
  data: []
uv_coordinates: []
text: ''
mesh_resource: ''
mesh_file:
  filename: ''
  data: []
mesh_use_embedded_materials: false
---
header:
  stamp:
    sec: 1707755328
    nanosec: 145952039
  frame_id: map
ns: map
id: 2
type: 8
action: 0
pose:
  position:
    x: 0.0
    y: 0.0
    z: 0.0
  orientation:
    x: 0.0
    y: 0.0
    z: 0.0
    w: 1.0
scale:
  x: 0.4
  y: 0.4
  z: 0.0
color:
  r: 0.0
  g: 1.0
  b: 0.0
  a: 1.0
lifetime:
  sec: 0
  nanosec: 0
frame_locked: false
points:
- x: 0.015325259311731513
  y: 0.0060327188908689214
  z: 0.0
colors: []
texture_resource: ''
texture:
  header:
    stamp:
      sec: 0
      nanosec: 0
    frame_id: ''
  format: ''
  data: []
uv_coordinates: []
text: ''
mesh_resource: ''
mesh_file:
  filename: ''
  data: []
mesh_use_embedded_materials: false
---
header:
  stamp:
    sec: 1707755326
    nanosec: 842264833
  frame_id: map
ns: map
id: 3
type: 8
action: 0
pose:
  position:
    x: 0.0
    y: 0.0
    z: -1.0
  orientation:
    x: 0.0
    y: 0.0
    z: 0.0
    w: 1.0
scale:
  x: 0.4
  y: 0.4
  z: 0.0
color:
  r: 1.0
  g: 0.0
  b: 0.0
  a: 1.0
lifetime:
  sec: 0
  nanosec: 0
frame_locked: false
points:
- x: 1.333534225001003
  y: -9.892204845413264
  z: 0.0
colors: []
texture_resource: ''
texture:
  header:
    stamp:
      sec: 0
      nanosec: 0
    frame_id: ''
  format: ''
  data: []
uv_coordinates: []
text: ''
mesh_resource: ''
mesh_file:
  filename: ''
  data: []
mesh_use_embedded_materials: false
---
header:
  stamp:
    sec: 1707755327
    nanosec: 945451019
  frame_id: map
ns: map
id: 11
type: 7
action: 0
pose:
  position:
    x: 0.0
    y: 0.0
    z: 0.0
  orientation:
    x: 0.0
    y: 0.0
    z: 0.0
    w: 1.0
scale:
  x: 0.3
  y: 0.3
  z: 0.0
color:
  r: 0.0
  g: 0.0
  b: 1.0
  a: 1.0
lifetime:
  sec: 0
  nanosec: 0
frame_locked: false
points:
- x: -2.7412095069885254
  y: -7.209719657897949
  z: 0.0
- x: -0.7675142288208008
  y: 1.2993310689926147
  z: 0.0
- x: -6.903553009033203
  y: 0.6703137755393982
  z: 0.0
- x: 5.434587478637695
  y: -1.3532778024673462
  z: 0.0
- x: 6.297125339508057
  y: -3.994657039642334
  z: 0.0
colors: []
texture_resource: ''
texture:
  header:
    stamp:
      sec: 0
      nanosec: 0
    frame_id: ''
  format: ''
  data: []
uv_coordinates: []
text: ''
mesh_resource: ''
mesh_file:
  filename: ''
  data: []
mesh_use_embedded_materials: false
---
header:
  stamp:
    sec: 1707755330
    nanosec: 48919083
  frame_id: map
ns: map
id: 166
type: 9
action: 0
pose:
  position:
    x: 6.297125339508057
    y: -3.594657039642334
    z: 0.6
  orientation:
    x: 0.0
    y: 0.0
    z: 0.0
    w: 1.0
scale:
  x: 0.5
  y: 0.5
  z: 0.5
color:
  r: 0.0
  g: 0.0
  b: 1.0
  a: 1.0
lifetime:
  sec: 0
  nanosec: 0
frame_locked: false
points: []
colors: []
texture_resource: ''
texture:
  header:
    stamp:
      sec: 0
      nanosec: 0
    frame_id: ''
  format: ''
  data: []
uv_coordinates: []
text: '-15.30'
mesh_resource: ''
mesh_file:
  filename: ''
  data: []
mesh_use_embedded_materials: false
---
header:
  stamp:
    sec: 1707755327
    nanosec: 945122433
  frame_id: map
ns: map
id: 0
type: 4
action: 0
pose:
  position:
    x: 0.0
    y: 0.0
    z: 0.0
  orientation:
    x: 0.0
    y: 0.0
    z: 0.0
    w: 1.0
scale:
  x: 0.5
  y: 0.0
  z: 0.0
color:
  r: 0.0
  g: 0.0
  b: 0.0
  a: 1.0
lifetime:
  sec: 0
  nanosec: 0
frame_locked: false
points:
- x: -5.7979305353555874
  y: -10.041999907957422
  z: 0.0
- x: -11.595852155507458
  y: -5.298290197686129e-07
  z: 0.0
- x: -5.7979305353555874
  y: 10.041999907957424
  z: 0.0
- x: 5.7979305353555874
  y: 10.041999907957422
  z: 0.0
- x: 11.595852155507458
  y: 5.298290197686129e-07
  z: 0.0
- x: 5.7979305353555874
  y: -10.041999907957424
  z: 0.0
- x: -5.7979305353555874
  y: -10.041999907957422
  z: 0.0
colors: []
texture_resource: ''
texture:
  header:
    stamp:
      sec: 0
      nanosec: 0
    frame_id: ''
  format: ''
  data: []
uv_coordinates: []
text: ''
mesh_resource: ''
mesh_file:
  filename: ''
  data: []
mesh_use_embedded_materials: false
---
header:
  stamp:
    sec: 1707755328
    nanosec: 145952039
  frame_id: map
ns: map
id: 2
type: 8
action: 0
pose:
  position:
    x: 0.0
    y: 0.0
    z: 0.0
  orientation:
    x: 0.0
    y: 0.0
    z: 0.0
    w: 1.0
scale:
  x: 0.4
  y: 0.4
  z: 0.0
color:
  r: 0.0
  g: 1.0
  b: 0.0
  a: 1.0
lifetime:
  sec: 0
  nanosec: 0
frame_locked: false
points:
- x: 0.015325259311731513
  y: 0.0060327188908689214
  z: 0.0
colors: []
texture_resource: ''
texture:
  header:
    stamp:
      sec: 0
      nanosec: 0
    frame_id: ''
  format: ''
  data: []
uv_coordinates: []
text: ''
mesh_resource: ''
mesh_file:
  filename: ''
  data: []
mesh_use_embedded_materials: false
---
header:
  stamp:
    sec: 1707755326
    nanosec: 842264833
  frame_id: map
ns: map
id: 3
type: 8
action: 0
pose:
  position:
    x: 0.0
    y: 0.0
    z: -1.0
  orientation:
    x: 0.0
    y: 0.0
    z: 0.0
    w: 1.0
scale:
  x: 0.4
  y: 0.4
  z: 0.0
color:
  r: 1.0
  g: 0.0
  b: 0.0
  a: 1.0
lifetime:
  sec: 0
  nanosec: 0
frame_locked: false
points:
- x: 1.333534225001003
  y: -9.892204845413264
  z: 0.0
colors: []
texture_resource: ''
texture:
  header:
    stamp:
      sec: 0
      nanosec: 0
    frame_id: ''
  format: ''
  data: []
uv_coordinates: []
text: ''
mesh_resource: ''
mesh_file:
  filename: ''
  data: []
mesh_use_embedded_materials: false
---
header:
  stamp:
    sec: 1707755327
    nanosec: 945451019
  frame_id: map
ns: map
id: 11
type: 7
action: 0
pose:
  position:
    x: 0.0
    y: 0.0
    z: 0.0
  orientation:
    x: 0.0
    y: 0.0
    z: 0.0
    w: 1.0
scale:
  x: 0.3
  y: 0.3
  z: 0.0
color:
  r: 0.0
  g: 0.0
  b: 1.0
  a: 1.0
lifetime:
  sec: 0
  nanosec: 0
frame_locked: false
points:
- x: -2.7412095069885254
  y: -7.209719657897949
  z: 0.0
- x: -0.7675142288208008
  y: 1.2993310689926147
  z: 0.0
- x: -6.903553009033203
  y: 0.6703137755393982
  z: 0.0
- x: 5.434587478637695
  y: -1.3532778024673462
  z: 0.0
- x: 6.297125339508057
  y: -3.994657039642334
  z: 0.0
colors: []
texture_resource: ''
texture:
  header:
    stamp:
      sec: 0
      nanosec: 0
    frame_id: ''
  format: ''
  data: []
uv_coordinates: []
text: ''
mesh_resource: ''
mesh_file:
  filename: ''
  data: []
mesh_use_embedded_materials: false
---
header:
  stamp:
    sec: 1707755330
    nanosec: 99131838
  frame_id: map
ns: map
id: 166
type: 9
action: 0
pose:
  position:
    x: 6.297125339508057
    y: -3.594657039642334
    z: 0.6
  orientation:
    x: 0.0
    y: 0.0
    z: 0.0
    w: 1.0
scale:
  x: 0.5
  y: 0.5
  z: 0.5
color:
  r: 0.0
  g: 0.0
  b: 1.0
  a: 1.0
lifetime:
  sec: 0
  nanosec: 0
frame_locked: false
points: []
colors: []
texture_resource: ''
texture:
  header:
    stamp:
      sec: 0
      nanosec: 0
    frame_id: ''
  format: ''
  data: []
uv_coordinates: []
text: '-15.30'
mesh_resource: ''
mesh_file:
  filename: ''
  data: []
mesh_use_embedded_materials: false
---
header:
  stamp:
    sec: 1707755327
    nanosec: 945122433
  frame_id: map
ns: map
id: 0
type: 4
action: 0
pose:
  position:
    x: 0.0
    y: 0.0
    z: 0.0
  orientation:
    x: 0.0
    y: 0.0
    z: 0.0
    w: 1.0
scale:
  x: 0.5
  y: 0.0
  z: 0.0
color:
  r: 0.0
  g: 0.0
  b: 0.0
  a: 1.0
lifetime:
  sec: 0
  nanosec: 0
frame_locked: false
points:
- x: -5.7979305353555874
  y: -10.041999907957422
  z: 0.0
- x: -11.595852155507458
  y: -5.298290197686129e-07
  z: 0.0
- x: -5.7979305353555874
  y: 10.041999907957424
  z: 0.0
- x: 5.7979305353555874
  y: 10.041999907957422
  z: 0.0
- x: 11.595852155507458
  y: 5.298290197686129e-07
  z: 0.0
- x: 5.7979305353555874
  y: -10.041999907957424
  z: 0.0
- x: -5.7979305353555874
  y: -10.041999907957422
  z: 0.0
colors: []
texture_resource: ''
texture:
  header:
    stamp:
      sec: 0
      nanosec: 0
    frame_id: ''
  format: ''
  data: []
uv_coordinates: []
text: ''
mesh_resource: ''
mesh_file:
  filename: ''
  data: []
mesh_use_embedded_materials: false
---
header:
  stamp:
    sec: 1707755328
    nanosec: 145952039
  frame_id: map
ns: map
id: 2
type: 8
action: 0
pose:
  position:
    x: 0.0
    y: 0.0
    z: 0.0
  orientation:
    x: 0.0
    y: 0.0
    z: 0.0
    w: 1.0
scale:
  x: 0.4
  y: 0.4
  z: 0.0
color:
  r: 0.0
  g: 1.0
  b: 0.0
  a: 1.0
lifetime:
  sec: 0
  nanosec: 0
frame_locked: false
points:
- x: 0.015325259311731513
  y: 0.0060327188908689214
  z: 0.0
colors: []
texture_resource: ''
texture:
  header:
    stamp:
      sec: 0
      nanosec: 0
    frame_id: ''
  format: ''
  data: []
uv_coordinates: []
text: ''
mesh_resource: ''
mesh_file:
  filename: ''
  data: []
mesh_use_embedded_materials: false
---
header:
  stamp:
    sec: 1707755326
    nanosec: 842264833
  frame_id: map
ns: map
id: 3
type: 8
action: 0
pose:
  position:
    x: 0.0
    y: 0.0
    z: -1.0
  orientation:
    x: 0.0
    y: 0.0
    z: 0.0
    w: 1.0
scale:
  x: 0.4
  y: 0.4
  z: 0.0
color:
  r: 1.0
  g: 0.0
  b: 0.0
  a: 1.0
lifetime:
  sec: 0
  nanosec: 0
frame_locked: false
points:
- x: 1.333534225001003
  y: -9.892204845413264
  z: 0.0
colors: []
texture_resource: ''
texture:
  header:
    stamp:
      sec: 0
      nanosec: 0
    frame_id: ''
  format: ''
  data: []
uv_coordinates: []
text: ''
mesh_resource: ''
mesh_file:
  filename: ''
  data: []
mesh_use_embedded_materials: false
---
header:
  stamp:
    sec: 1707755327
    nanosec: 945451019
  frame_id: map
ns: map
id: 11
type: 7
action: 0
pose:
  position:
    x: 0.0
    y: 0.0
    z: 0.0
  orientation:
    x: 0.0
    y: 0.0
    z: 0.0
    w: 1.0
scale:
  x: 0.3
  y: 0.3
  z: 0.0
color:
  r: 0.0
  g: 0.0
  b: 1.0
  a: 1.0
lifetime:
  sec: 0
  nanosec: 0
frame_locked: false
points:
- x: -2.7412095069885254
  y: -7.209719657897949
  z: 0.0
- x: -0.7675142288208008
  y: 1.2993310689926147
  z: 0.0
- x: -6.903553009033203
  y: 0.6703137755393982
  z: 0.0
- x: 5.434587478637695
  y: -1.3532778024673462
  z: 0.0
- x: 6.297125339508057
  y: -3.994657039642334
  z: 0.0
colors: []
texture_resource: ''
texture:
  header:
    stamp:
      sec: 0
      nanosec: 0
    frame_id: ''
  format: ''
  data: []
uv_coordinates: []
text: ''
mesh_resource: ''
mesh_file:
  filename: ''
  data: []
mesh_use_embedded_materials: false
---
header:
  stamp:
    sec: 1707755330
    nanosec: 149364133
  frame_id: map
ns: map
id: 166
type: 9
action: 0
pose:
  position:
    x: 6.297125339508057
    y: -3.594657039642334
    z: 0.6
  orientation:
    x: 0.0
    y: 0.0
    z: 0.0
    w: 1.0
scale:
  x: 0.5
  y: 0.5
  z: 0.5
color:
  r: 0.0
  g: 0.0
  b: 1.0
  a: 1.0
lifetime:
  sec: 0
  nanosec: 0
frame_locked: false
points: []
colors: []
texture_resource: ''
texture:
  header:
    stamp:
      sec: 0
      nanosec: 0
    frame_id: ''
  format: ''
  data: []
uv_coordinates: []
text: '-15.30'
mesh_resource: ''
mesh_file:
  filename: ''
  data: []
mesh_use_embedded_materials: false
---
header:
  stamp:
    sec: 1707755327
    nanosec: 945122433
  frame_id: map
ns: map
id: 0
type: 4
action: 0
pose:
  position:
    x: 0.0
    y: 0.0
    z: 0.0
  orientation:
    x: 0.0
    y: 0.0
    z: 0.0
    w: 1.0
scale:
  x: 0.5
  y: 0.0
  z: 0.0
color:
  r: 0.0
  g: 0.0
  b: 0.0
  a: 1.0
lifetime:
  sec: 0
  nanosec: 0
frame_locked: false
points:
- x: -5.7979305353555874
  y: -10.041999907957422
  z: 0.0
- x: -11.595852155507458
  y: -5.298290197686129e-07
  z: 0.0
- x: -5.7979305353555874
  y: 10.041999907957424
  z: 0.0
- x: 5.7979305353555874
  y: 10.041999907957422
  z: 0.0
- x: 11.595852155507458
  y: 5.298290197686129e-07
  z: 0.0
- x: 5.7979305353555874
  y: -10.041999907957424
  z: 0.0
- x: -5.7979305353555874
  y: -10.041999907957422
  z: 0.0
colors: []
texture_resource: ''
texture:
  header:
    stamp:
      sec: 0
      nanosec: 0
    frame_id: ''
  format: ''
  data: []
uv_coordinates: []
text: ''
mesh_resource: ''
mesh_file:
  filename: ''
  data: []
mesh_use_embedded_materials: false
---
header:
  stamp:
    sec: 1707755328
    nanosec: 145952039
  frame_id: map
ns: map
id: 2
type: 8
action: 0
pose:
  position:
    x: 0.0
    y: 0.0
    z: 0.0
  orientation:
    x: 0.0
    y: 0.0
    z: 0.0
    w: 1.0
scale:
  x: 0.4
  y: 0.4
  z: 0.0
color:
  r: 0.0
  g: 1.0
  b: 0.0
  a: 1.0
lifetime:
  sec: 0
  nanosec: 0
frame_locked: false
points:
- x: 0.015325259311731513
  y: 0.0060327188908689214
  z: 0.0
colors: []
texture_resource: ''
texture:
  header:
    stamp:
      sec: 0
      nanosec: 0
    frame_id: ''
  format: ''
  data: []
uv_coordinates: []
text: ''
mesh_resource: ''
mesh_file:
  filename: ''
  data: []
mesh_use_embedded_materials: false
---
header:
  stamp:
    sec: 1707755326
    nanosec: 842264833
  frame_id: map
ns: map
id: 3
type: 8
action: 0
pose:
  position:
    x: 0.0
    y: 0.0
    z: -1.0
  orientation:
    x: 0.0
    y: 0.0
    z: 0.0
    w: 1.0
scale:
  x: 0.4
  y: 0.4
  z: 0.0
color:
  r: 1.0
  g: 0.0
  b: 0.0
  a: 1.0
lifetime:
  sec: 0
  nanosec: 0
frame_locked: false
points:
- x: 1.333534225001003
  y: -9.892204845413264
  z: 0.0
colors: []
texture_resource: ''
texture:
  header:
    stamp:
      sec: 0
      nanosec: 0
    frame_id: ''
  format: ''
  data: []
uv_coordinates: []
text: ''
mesh_resource: ''
mesh_file:
  filename: ''
  data: []
mesh_use_embedded_materials: false
---
header:
  stamp:
    sec: 1707755327
    nanosec: 945451019
  frame_id: map
ns: map
id: 11
type: 7
action: 0
pose:
  position:
    x: 0.0
    y: 0.0
    z: 0.0
  orientation:
    x: 0.0
    y: 0.0
    z: 0.0
    w: 1.0
scale:
  x: 0.3
  y: 0.3
  z: 0.0
color:
  r: 0.0
  g: 0.0
  b: 1.0
  a: 1.0
lifetime:
  sec: 0
  nanosec: 0
frame_locked: false
points:
- x: -2.7412095069885254
  y: -7.209719657897949
  z: 0.0
- x: -0.7675142288208008
  y: 1.2993310689926147
  z: 0.0
- x: -6.903553009033203
  y: 0.6703137755393982
  z: 0.0
- x: 5.434587478637695
  y: -1.3532778024673462
  z: 0.0
- x: 6.297125339508057
  y: -3.994657039642334
  z: 0.0
colors: []
texture_resource: ''
texture:
  header:
    stamp:
      sec: 0
      nanosec: 0
    frame_id: ''
  format: ''
  data: []
uv_coordinates: []
text: ''
mesh_resource: ''
mesh_file:
  filename: ''
  data: []
mesh_use_embedded_materials: false
---
header:
  stamp:
    sec: 1707755330
    nanosec: 199577376
  frame_id: map
ns: map
id: 166
type: 9
action: 0
pose:
  position:
    x: 6.297125339508057
    y: -3.594657039642334
    z: 0.6
  orientation:
    x: 0.0
    y: 0.0
    z: 0.0
    w: 1.0
scale:
  x: 0.5
  y: 0.5
  z: 0.5
color:
  r: 0.0
  g: 0.0
  b: 1.0
  a: 1.0
lifetime:
  sec: 0
  nanosec: 0
frame_locked: false
points: []
colors: []
texture_resource: ''
texture:
  header:
    stamp:
      sec: 0
      nanosec: 0
    frame_id: ''
  format: ''
  data: []
uv_coordinates: []
text: '-15.30'
mesh_resource: ''
mesh_file:
  filename: ''
  data: []
mesh_use_embedded_materials: false
---
header:
  stamp:
    sec: 1707755327
    nanosec: 945122433
  frame_id: map
ns: map
id: 0
type: 4
action: 0
pose:
  position:
    x: 0.0
    y: 0.0
    z: 0.0
  orientation:
    x: 0.0
    y: 0.0
    z: 0.0
    w: 1.0
scale:
  x: 0.5
  y: 0.0
  z: 0.0
color:
  r: 0.0
  g: 0.0
  b: 0.0
  a: 1.0
lifetime:
  sec: 0
  nanosec: 0
frame_locked: false
points:
- x: -5.7979305353555874
  y: -10.041999907957422
  z: 0.0
- x: -11.595852155507458
  y: -5.298290197686129e-07
  z: 0.0
- x: -5.7979305353555874
  y: 10.041999907957424
  z: 0.0
- x: 5.7979305353555874
  y: 10.041999907957422
  z: 0.0
- x: 11.595852155507458
  y: 5.298290197686129e-07
  z: 0.0
- x: 5.7979305353555874
  y: -10.041999907957424
  z: 0.0
- x: -5.7979305353555874
  y: -10.041999907957422
  z: 0.0
colors: []
texture_resource: ''
texture:
  header:
    stamp:
      sec: 0
      nanosec: 0
    frame_id: ''
  format: ''
  data: []
uv_coordinates: []
text: ''
mesh_resource: ''
mesh_file:
  filename: ''
  data: []
mesh_use_embedded_materials: false
---
header:
  stamp:
    sec: 1707755328
    nanosec: 145952039
  frame_id: map
ns: map
id: 2
type: 8
action: 0
pose:
  position:
    x: 0.0
    y: 0.0
    z: 0.0
  orientation:
    x: 0.0
    y: 0.0
    z: 0.0
    w: 1.0
scale:
  x: 0.4
  y: 0.4
  z: 0.0
color:
  r: 0.0
  g: 1.0
  b: 0.0
  a: 1.0
lifetime:
  sec: 0
  nanosec: 0
frame_locked: false
points:
- x: 0.015325259311731513
  y: 0.0060327188908689214
  z: 0.0
colors: []
texture_resource: ''
texture:
  header:
    stamp:
      sec: 0
      nanosec: 0
    frame_id: ''
  format: ''
  data: []
uv_coordinates: []
text: ''
mesh_resource: ''
mesh_file:
  filename: ''
  data: []
mesh_use_embedded_materials: false
---
header:
  stamp:
    sec: 1707755326
    nanosec: 842264833
  frame_id: map
ns: map
id: 3
type: 8
action: 0
pose:
  position:
    x: 0.0
    y: 0.0
    z: -1.0
  orientation:
    x: 0.0
    y: 0.0
    z: 0.0
    w: 1.0
scale:
  x: 0.4
  y: 0.4
  z: 0.0
color:
  r: 1.0
  g: 0.0
  b: 0.0
  a: 1.0
lifetime:
  sec: 0
  nanosec: 0
frame_locked: false
points:
- x: 1.333534225001003
  y: -9.892204845413264
  z: 0.0
colors: []
texture_resource: ''
texture:
  header:
    stamp:
      sec: 0
      nanosec: 0
    frame_id: ''
  format: ''
  data: []
uv_coordinates: []
text: ''
mesh_resource: ''
mesh_file:
  filename: ''
  data: []
mesh_use_embedded_materials: false
---
header:
  stamp:
    sec: 1707755327
    nanosec: 945451019
  frame_id: map
ns: map
id: 11
type: 7
action: 0
pose:
  position:
    x: 0.0
    y: 0.0
    z: 0.0
  orientation:
    x: 0.0
    y: 0.0
    z: 0.0
    w: 1.0
scale:
  x: 0.3
  y: 0.3
  z: 0.0
color:
  r: 0.0
  g: 0.0
  b: 1.0
  a: 1.0
lifetime:
  sec: 0
  nanosec: 0
frame_locked: false
points:
- x: -2.7412095069885254
  y: -7.209719657897949
  z: 0.0
- x: -0.7675142288208008
  y: 1.2993310689926147
  z: 0.0
- x: -6.903553009033203
  y: 0.6703137755393982
  z: 0.0
- x: 5.434587478637695
  y: -1.3532778024673462
  z: 0.0
- x: 6.297125339508057
  y: -3.994657039642334
  z: 0.0
colors: []
texture_resource: ''
texture:
  header:
    stamp:
      sec: 0
      nanosec: 0
    frame_id: ''
  format: ''
  data: []
uv_coordinates: []
text: ''
mesh_resource: ''
mesh_file:
  filename: ''
  data: []
mesh_use_embedded_materials: false
---
header:
  stamp:
    sec: 1707755332
    nanosec: 257881997
  frame_id: map
ns: map
id: 43
type: 5
action: 0
pose:
  position:
    x: 0.0
    y: 0.0
    z: 0.1
  orientation:
    x: 0.0
    y: 0.0
    z: 0.0
    w: 1.0
scale:
  x: 0.1
  y: 0.1
  z: 0.01
color:
  r: 0.0
  g: 0.5
  b: 0.5
  a: 1.0
lifetime:
  sec: 0
  nanosec: 0
frame_locked: false
points:
- x: -9.201899999999998
  y: -3.339331043534038
  z: 0.01
- x: -9.525410089022323
  y: -2.9368999999999996
  z: 0.01
- x: -9.525410089022323
  y: -2.9368999999999996
  z: 0.01
- x: -9.201899999999998
  y: -3.339331043534038
  z: 0.01
- x: -9.887186130239135
  y: -1.5869
  z: 0.01
- x: -9.525410089022323
  y: -2.9368999999999996
  z: 0.01
- x: -9.525410089022323
  y: -2.9368999999999996
  z: 0.01
- x: -9.887186130239135
  y: -1.5869
  z: 0.01
- x: -10.110415346782547
  y: -0.7539
  z: 0.01
- x: -9.887186130239135
  y: -1.5869
  z: 0.01
- x: -9.887186130239135
  y: -1.5869
  z: 0.01
- x: -10.110415346782547
  y: -0.7539
  z: 0.01
- x: -10.312473965358455
  y: 0.0001
  z: 0.01
- x: -10.110415346782547
  y: -0.7539
  z: 0.01
- x: -10.110415346782547
  y: -0.7539
  z: 0.01
- x: -10.312473965358455
  y: 0.0001
  z: 0.01
- x: -10.153024524970304
  y: 0.5951
  z: 0.01
- x: -10.312473965358455
  y: 0.0001
  z: 0.01
- x: -10.312473965358455
  y: 0.0001
  z: 0.01
- x: -10.153024524970304
  y: 0.5951
  z: 0.01
- x: -9.2019
  y: 1.7782533176333353
  z: 0.01
- x: -10.153024524970304
  y: 0.5951
  z: 0.01
- x: -10.153024524970304
  y: 0.5951
  z: 0.01
- x: -9.2019
  y: 1.7782533176333353
  z: 0.01
- x: -7.8519
  y: -4.118698386126916
  z: 0.01
- x: -9.201899999999998
  y: -3.339331043534038
  z: 0.01
- x: -9.201899999999998
  y: -3.339331043534038
  z: 0.01
- x: -7.8519
  y: -4.118698386126916
  z: 0.01
- x: -7.8519000000000005
  y: 2.557620660226213
  z: 0.01
- x: -9.2019
  y: 1.7782533176333353
  z: 0.01
- x: -9.2019
  y: 1.7782533176333353
  z: 0.01
- x: -7.8519000000000005
  y: 2.557620660226213
  z: 0.01
- x: -7.1839
  y: -4.504340893424724
  z: 0.01
- x: -7.8519
  y: -4.118698386126916
  z: 0.01
- x: -7.8519
  y: -4.118698386126916
  z: 0.01
- x: -7.1839
  y: -4.504340893424724
  z: 0.01
- x: -7.1838999999999995
  y: 2.9432631675240217
  z: 0.01
- x: -7.8519000000000005
  y: 2.557620660226213
  z: 0.01
- x: -7.8519000000000005
  y: 2.557620660226213
  z: 0.01
- x: -7.1838999999999995
  y: 2.9432631675240217
  z: 0.01
- x: -6.602801695719343
  y: -4.839814257270979
  z: 0.01
- x: -7.1839
  y: -4.504340893424724
  z: 0.01
- x: -7.1839
  y: -4.504340893424724
  z: 0.01
- x: -6.602801695719343
  y: -4.839814257270979
  z: 0.01
- x: -5.833899999999999
  y: 3.722630510116899
  z: 0.01
- x: -7.1838999999999995
  y: 2.9432631675240217
  z: 0.01
- x: -7.1838999999999995
  y: 2.9432631675240217
  z: 0.01
- x: -5.833899999999999
  y: 3.722630510116899
  z: 0.01
- x: -6.602801695719343
  y: -4.839814257270979
  z: 0.01
- x: -6.5959
  y: -4.8329
  z: 0.01
- x: -6.5959
  y: -4.8329
  z: 0.01
- x: -6.602801695719343
  y: -4.839814257270979
  z: 0.01
- x: -5.8339
  y: -4.0709
  z: 0.01
- x: -6.5959
  y: -4.8329
  z: 0.01
- x: -6.5959
  y: -4.8329
  z: 0.01
- x: -5.8339
  y: -4.0709
  z: 0.01
- x: -5.398344444444445
  y: -3.4829
  z: 0.01
- x: -5.8339
  y: -4.0709
  z: 0.01
- x: -5.8339
  y: -4.0709
  z: 0.01
- x: -5.398344444444445
  y: -3.4829
  z: 0.01
- x: -5.266900000000001
  y: -2.9368999999999996
  z: 0.01
- x: -5.398344444444445
  y: -3.4829
  z: 0.01
- x: -5.398344444444445
  y: -3.4829
  z: 0.01
- x: -5.266900000000001
  y: -2.9368999999999996
  z: 0.01
- x: -5.266900000000001
  y: -2.5018999999999996
  z: 0.01
- x: -5.266900000000001
  y: -2.9368999999999996
  z: 0.01
- x: -5.266900000000001
  y: -2.9368999999999996
  z: 0.01
- x: -5.266900000000001
  y: -2.5018999999999996
  z: 0.01
- x: -5.266900000000001
  y: -1.5869
  z: 0.01
- x: -5.266900000000001
  y: -2.5018999999999996
  z: 0.01
- x: -5.266900000000001
  y: -2.5018999999999996
  z: 0.01
- x: -5.266900000000001
  y: -1.5869
  z: 0.01
- x: -5.266900000000001
  y: -1.1519
  z: 0.01
- x: -5.266900000000001
  y: -1.5869
  z: 0.01
- x: -5.266900000000001
  y: -1.5869
  z: 0.01
- x: -5.266900000000001
  y: -1.1519
  z: 0.01
- x: -5.1970569664903
  y: -0.7539
  z: 0.01
- x: -5.266900000000001
  y: -1.1519
  z: 0.01
- x: -5.266900000000001
  y: -1.1519
  z: 0.01
- x: -5.1970569664903
  y: -0.7539
  z: 0.01
- x: -4.699900000000001
  y: -7.202331785993627
  z: 0.01
- x: -6.602801695719343
  y: -4.839814257270979
  z: 0.01
- x: -6.602801695719343
  y: -4.839814257270979
  z: 0.01
- x: -4.699900000000001
  y: -7.202331785993627
  z: 0.01
- x: -4.6999
  y: -0.0179
  z: 0.01
- x: -5.1970569664903
  y: -0.7539
  z: 0.01
- x: -5.1970569664903
  y: -0.7539
  z: 0.01
- x: -4.6999
  y: -0.0179
  z: 0.01
- x: -4.0869
  y: 0.5951000000000001
  z: 0.01
- x: -4.6999
  y: -0.0179
  z: 0.01
- x: -4.6999
  y: -0.0179
  z: 0.01
- x: -4.0869
  y: 0.5951000000000001
  z: 0.01
- x: -4.812892692378785
  y: 8.336627933119248
  z: 0.01
- x: -4.494900000000001
  y: 8.692100000000002
  z: 0.01
- x: -4.494900000000001
  y: 8.692100000000002
  z: 0.01
- x: -4.812892692378785
  y: 8.336627933119248
  z: 0.01
- x: -4.043464206125998
  y: 4.495394564167801
  z: 0.01
- x: -4.812892692378785
  y: 8.336627933119248
  z: 0.01
- x: -4.812892692378785
  y: 8.336627933119248
  z: 0.01
- x: -4.043464206125998
  y: 4.495394564167801
  z: 0.01
- x: -4.043464206125998
  y: 4.495394564167801
  z: 0.01
- x: -5.833899999999999
  y: 3.722630510116899
  z: 0.01
- x: -5.833899999999999
  y: 3.722630510116899
  z: 0.01
- x: -4.043464206125998
  y: 4.495394564167801
  z: 0.01
- x: -3.8497404117569816
  y: 0.8483570897586441
  z: 0.01
- x: -4.0869
  y: 0.5951000000000001
  z: 0.01
- x: -4.0869
  y: 0.5951000000000001
  z: 0.01
- x: -3.8497404117569816
  y: 0.8483570897586441
  z: 0.01
- x: -4.2935869925097405
  y: -7.4369000000000005
  z: 0.01
- x: -4.699900000000001
  y: -7.202331785993627
  z: 0.01
- x: -4.699900000000001
  y: -7.202331785993627
  z: 0.01
- x: -4.2935869925097405
  y: -7.4369000000000005
  z: 0.01
- x: -2.8318999999999996
  y: -0.37533756050338823
  z: 0.01
- x: -3.3499
  y: 0.12210290416263311
  z: 0.01
- x: -3.3499
  y: 0.12210290416263311
  z: 0.01
- x: -2.8318999999999996
  y: -0.37533756050338823
  z: 0.01
- x: -3.8497404117569816
  y: 0.8483570897586441
  z: 0.01
- x: -3.3499
  y: 0.12210290416263311
  z: 0.01
- x: -3.3499
  y: 0.12210290416263311
  z: 0.01
- x: -3.8497404117569816
  y: 0.8483570897586441
  z: 0.01
- x: -3.2057205034387826
  y: 4.217284761423175
  z: 0.01
- x: -3.8497404117569816
  y: 0.8483570897586441
  z: 0.01
- x: -3.8497404117569816
  y: 0.8483570897586441
  z: 0.01
- x: -3.2057205034387826
  y: 4.217284761423175
  z: 0.01
- x: -3.3499
  y: -7.4369000000000005
  z: 0.01
- x: -4.2935869925097405
  y: -7.4369000000000005
  z: 0.01
- x: -4.2935869925097405
  y: -7.4369000000000005
  z: 0.01
- x: -3.3499
  y: -7.4369000000000005
  z: 0.01
- '...'
colors: []
texture_resource: ''
texture:
  header:
    stamp:
      sec: 0
      nanosec: 0
    frame_id: ''
  format: ''
  data: []
uv_coordinates: []
text: ''
mesh_resource: ''
mesh_file:
  filename: ''
  data: []
mesh_use_embedded_materials: false
---
